{"config": {"view": {"continuousWidth": 300, "continuousHeight": 300}}, "hconcat": [{"mark": {"type": "bar"}, "encoding": {"fillOpacity": {"condition": [{"param": "select", "value": 1}], "value": 0.3}, "x": {"field": "usage_status", "title": "Usage Status", "type": "nominal"}, "y": {"field": "usage_total_count", "scale": {"type": "symlog"}, "title": "Count", "type": "quantitative"}}, "height": 400, "name": "view_2", "transform": [{"fold": ["Abandon", "In Use", "In Progress"], "as": ["usage_status", "usage_count"]}, {"aggregate": [{"op": "sum", "field": "usage_count", "as": "usage_total_count"}], "groupby": ["usage_status"]}], "width": 300}, {"mark": {"type": "circle", "size": 5}, "encoding": {"latitude": {"field": "latitude", "type": "quantitative"}, "longitude": {"field": "longitude", "type": "quantitative"}, "size": {"field": "usage_total_count", "title": "Number of Buildings", "type": "quantitative"}, "tooltip": [{"field": "usage_total_count", "title": "Number of Buildings:", "type": "quantitative"}, {"field": "zip_code", "title": "Zip Code:", "type": "quantitative"}, {"field": "latitude", "title": "Latitude:", "type": "quantitative"}, {"field": "longitude", "title": "Longitude:", "type": "quantitative"}]}, "height": 400, "projection": {"type": "albersUsa"}, "transform": [{"fold": ["Abandon", "In Use", "In Progress"], "as": ["usage_status", "usage_count"]}, {"filter": {"param": "select"}}, {"aggregate": [{"op": "sum", "field": "usage_count", "as": "usage_total_count"}], "groupby": ["zip_code", "longitude", "latitude"]}], "width": 800}], "data": {"name": "data-eb55878106eca679db22edea8ea4f7fc"}, "params": [{"name": "select", "select": {"type": "point", "fields": ["usage_status"], "on": "click"}, "views": ["view_2"]}], "$schema": "https://vega.github.io/schema/vega-lite/v5.20.1.json", "datasets": {"data-eb55878106eca679db22edea8ea4f7fc": [{"zip_code": 60005, "latitude": 42.060928, "longitude": -87.883073, "city": "Arlington Heights", "state": "IL", "county": "Cook", "Abandon": 0.0, "In Progress": 0.0, "In Use": 4.0}, {"zip_code": 60007, "latitude": 42.020278, "longitude": -87.905866, "city": "Elk Grove Village", "state": "IL", "county": "Cook", "Abandon": 0.0, "In Progress": 0.0, "In Use": 6.0}, {"zip_code": 60016, "latitude": 42.048278, "longitude": -87.890466, "city": "Des Plaines", "state": "IL", "county": "Cook", "Abandon": 0.0, "In Progress": 0.0, "In Use": 4.0}, {"zip_code": 60018, "latitude": 42.015479, "longitude": -87.868714, "city": "Des Plaines", "state": "IL", "county": "Cook", "Abandon": 0.0, "In Progress": 0.0, "In Use": 1.0}, {"zip_code": 60025, "latitude": 42.082715, "longitude": -87.819714, "city": "Glenview", "state": "IL", "county": "Cook", "Abandon": 0.0, "In Progress": 0.0, "In Use": 1.0}, {"zip_code": 60030, "latitude": 42.352423, "longitude": -88.054502, "city": "Grayslake", "state": "IL", "county": "Lake", "Abandon": 0.0, "In Progress": 0.0, "In Use": 3.0}, {"zip_code": 60031, "latitude": 42.375121, "longitude": -87.939683, "city": "Gurnee", "state": "IL", "county": "Lake", "Abandon": 0.0, "In Progress": 0.0, "In Use": 2.0}, {"zip_code": 60033, "latitude": 42.362962, "longitude": -88.495375, "city": "Harvard", "state": "IL", "county": "Mchenry", "Abandon": 0.0, "In Progress": 0.0, "In Use": 3.0}, {"zip_code": 60035, "latitude": 42.187424, "longitude": -87.811865, "city": "Highland Park", "state": "IL", "county": "Lake", "Abandon": 0.0, "In Progress": 0.0, "In Use": 2.0}, {"zip_code": 60041, "latitude": 42.366521, "longitude": -88.145683, "city": "Ingleside", "state": "IL", "county": "Lake", "Abandon": 0.0, "In Progress": 0.0, "In Use": 5.0}, {"zip_code": 60044, "latitude": 42.294172, "longitude": -87.86767, "city": "Lake Bluff", "state": "IL", "county": "Lake", "Abandon": 0.0, "In Progress": 0.0, "In Use": 2.0}, {"zip_code": 60045, "latitude": 42.240027, "longitude": -87.877569, "city": "Lake Forest", "state": "IL", "county": "Lake", "Abandon": 0.0, "In Progress": 0.0, "In Use": 2.0}, {"zip_code": 60048, "latitude": 42.28947, "longitude": -87.957724, "city": "Libertyville", "state": "IL", "county": "Lake", "Abandon": 0.0, "In Progress": 0.0, "In Use": 4.0}, {"zip_code": 60050, "latitude": 42.296671, "longitude": -88.320886, "city": "Mchenry", "state": "IL", "county": "Mchenry", "Abandon": 0.0, "In Progress": 0.0, "In Use": 36.0}, {"zip_code": 60051, "latitude": 42.324761, "longitude": -88.452481, "city": "Mchenry", "state": "IL", "county": "Mchenry", "Abandon": 0.0, "In Progress": 0.0, "In Use": 24.0}, {"zip_code": 60060, "latitude": 42.252523, "longitude": -88.027327, "city": "Mundelein", "state": "IL", "county": "Lake", "Abandon": 0.0, "In Progress": 0.0, "In Use": 1.0}, {"zip_code": 60062, "latitude": 42.120176, "longitude": -87.838815, "city": "Northbrook", "state": "IL", "county": "Cook", "Abandon": 0.0, "In Progress": 0.0, "In Use": 5.0}, {"zip_code": 60070, "latitude": 42.105805, "longitude": -87.939519, "city": "Prospect Heights", "state": "IL", "county": "Cook", "Abandon": 0.0, "In Progress": 0.0, "In Use": 1.0}, {"zip_code": 60071, "latitude": 42.328463, "longitude": -88.429864, "city": "Richmond", "state": "IL", "county": "Mchenry", "Abandon": 0.0, "In Progress": 0.0, "In Use": 1.0}, {"zip_code": 60077, "latitude": 42.03468, "longitude": -87.76266, "city": "Skokie", "state": "IL", "county": "Cook", "Abandon": 0.0, "In Progress": 0.0, "In Use": 1.0}, {"zip_code": 60081, "latitude": 42.367273, "longitude": -88.252639, "city": "Spring Grove", "state": "IL", "county": "Mchenry", "Abandon": 0.0, "In Progress": 0.0, "In Use": 63.0}, {"zip_code": 60083, "latitude": 42.440139, "longitude": -87.940027, "city": "Wadsworth", "state": "IL", "county": "Lake", "Abandon": 0.0, "In Progress": 0.0, "In Use": 2.0}, {"zip_code": 60085, "latitude": 42.327366, "longitude": -87.982025, "city": "Waukegan", "state": "IL", "county": "Lake", "Abandon": 0.0, "In Progress": 0.0, "In Use": 67.0}, {"zip_code": 60093, "latitude": 42.112176, "longitude": -87.940168, "city": "Winnetka", "state": "IL", "county": "Cook", "Abandon": 0.0, "In Progress": 0.0, "In Use": 4.0}, {"zip_code": 60096, "latitude": 42.47832, "longitude": -87.834222, "city": "Winthrop Harbor", "state": "IL", "county": "Lake", "Abandon": 0.0, "In Progress": 0.0, "In Use": 1.0}, {"zip_code": 60098, "latitude": 42.320271, "longitude": -88.462832, "city": "Woodstock", "state": "IL", "county": "Mchenry", "Abandon": 0.0, "In Progress": 0.0, "In Use": 7.0}, {"zip_code": 60099, "latitude": 42.45577, "longitude": -87.884975, "city": "Zion", "state": "IL", "county": "Lake", "Abandon": 3.0, "In Progress": 0.0, "In Use": 57.0}, {"zip_code": 60103, "latitude": 42.033376, "longitude": -88.157756, "city": "Bartlett", "state": "IL", "county": "Cook", "Abandon": 0.0, "In Progress": 0.0, "In Use": 8.0}, {"zip_code": 60113, "latitude": 41.931158, "longitude": -88.956564, "city": "Creston", "state": "IL", "county": "Ogle", "Abandon": 0.0, "In Progress": 0.0, "In Use": 4.0}, {"zip_code": 60115, "latitude": 41.816826, "longitude": -88.79101, "city": "Dekalb", "state": "IL", "county": "De Kalb", "Abandon": 0.0, "In Progress": 0.0, "In Use": 64.0}, {"zip_code": 60120, "latitude": 41.990689, "longitude": -88.429777, "city": "Elgin", "state": "IL", "county": "Kane", "Abandon": 0.0, "In Progress": 0.0, "In Use": 6.0}, {"zip_code": 60123, "latitude": 42.036325, "longitude": -88.371044, "city": "Elgin", "state": "IL", "county": "Kane", "Abandon": 2.0, "In Progress": 0.0, "In Use": 32.0}, {"zip_code": 60126, "latitude": 41.88353, "longitude": -87.946413, "city": "Elmhurst", "state": "IL", "county": "Du Page", "Abandon": 0.0, "In Progress": 0.0, "In Use": 2.0}, {"zip_code": 60130, "latitude": 41.811929, "longitude": -87.68732, "city": "Forest Park", "state": "IL", "county": "Cook", "Abandon": 0.0, "In Progress": 0.0, "In Use": 2.0}, {"zip_code": 60137, "latitude": 41.872034, "longitude": -88.029385, "city": "Glen Ellyn", "state": "IL", "county": "Du Page", "Abandon": 0.0, "In Progress": 0.0, "In Use": 1.0}, {"zip_code": 60140, "latitude": 42.027886, "longitude": -88.454812, "city": "Hampshire", "state": "IL", "county": "Kane", "Abandon": 0.0, "In Progress": 0.0, "In Use": 1.0}, {"zip_code": 60141, "latitude": 41.811929, "longitude": -87.68732, "city": "Hines", "state": "IL", "county": "Cook", "Abandon": 0.0, "In Progress": 0.0, "In Use": 30.0}, {"zip_code": 60160, "latitude": 41.91488, "longitude": -87.858707, "city": "Melrose Park", "state": "IL", "county": "Cook", "Abandon": 0.0, "In Progress": 0.0, "In Use": 2.0}, {"zip_code": 60162, "latitude": 41.811929, "longitude": -87.68732, "city": "Hillside", "state": "IL", "county": "Cook", "Abandon": 0.0, "In Progress": 0.0, "In Use": 4.0}, {"zip_code": 60164, "latitude": 41.92138, "longitude": -87.892412, "city": "Melrose Park", "state": "IL", "county": "Cook", "Abandon": 0.0, "In Progress": 0.0, "In Use": 1.0}, {"zip_code": 60165, "latitude": 41.90743, "longitude": -87.878011, "city": "Stone Park", "state": "IL", "county": "Cook", "Abandon": 0.0, "In Progress": 0.0, "In Use": 1.0}, {"zip_code": 60174, "latitude": 41.937151, "longitude": -88.430167, "city": "Saint Charles", "state": "IL", "county": "Kane", "Abandon": 5.0, "In Progress": 0.0, "In Use": 52.0}, {"zip_code": 60175, "latitude": 41.943171, "longitude": -88.386905, "city": "Saint Charles", "state": "IL", "county": "Kane", "Abandon": 0.0, "In Progress": 0.0, "In Use": 9.0}, {"zip_code": 60178, "latitude": 41.893687, "longitude": -88.68562, "city": "Sycamore", "state": "IL", "county": "De Kalb", "Abandon": 0.0, "In Progress": 0.0, "In Use": 5.0}, {"zip_code": 60181, "latitude": 41.875379, "longitude": -87.97643, "city": "Villa Park", "state": "IL", "county": "Du Page", "Abandon": 0.0, "In Progress": 0.0, "In Use": 3.0}, {"zip_code": 60193, "latitude": 42.016827, "longitude": -88.117844, "city": "Schaumburg", "state": "IL", "county": "Cook", "Abandon": 0.0, "In Progress": 0.0, "In Use": 2.0}, {"zip_code": 60196, "latitude": 42.056376, "longitude": -88.072522, "city": "Schaumburg", "state": "IL", "county": "Cook", "Abandon": 0.0, "In Progress": 0.0, "In Use": 2.0}, {"zip_code": 60304, "latitude": 41.811929, "longitude": -87.68732, "city": "Oak Park", "state": "IL", "county": "Cook", "Abandon": 0.0, "In Progress": 0.0, "In Use": 1.0}, {"zip_code": 60406, "latitude": 41.811929, "longitude": -87.68732, "city": "Blue Island", "state": "IL", "county": "Cook", "Abandon": 0.0, "In Progress": 0.0, "In Use": 2.0}, {"zip_code": 60407, "latitude": 41.238676, "longitude": -88.278834, "city": "Braceville", "state": "IL", "county": "Grundy", "Abandon": 0.0, "In Progress": 0.0, "In Use": 1.0}, {"zip_code": 60410, "latitude": 41.43313, "longitude": -88.199325, "city": "Channahon", "state": "IL", "county": "Will", "Abandon": 0.0, "In Progress": 0.0, "In Use": 4.0}, {"zip_code": 60411, "latitude": 41.811929, "longitude": -87.68732, "city": "Chicago Heights", "state": "IL", "county": "Cook", "Abandon": 0.0, "In Progress": 0.0, "In Use": 1.0}, {"zip_code": 60420, "latitude": 41.059551, "longitude": -88.417086, "city": "Dwight", "state": "IL", "county": "Livingston", "Abandon": 0.0, "In Progress": 1.0, "In Use": 51.0}, {"zip_code": 60421, "latitude": 41.44288, "longitude": -88.090588, "city": "Elwood", "state": "IL", "county": "Will", "Abandon": 0.0, "In Progress": 0.0, "In Use": 1.0}, {"zip_code": 60423, "latitude": 41.451744, "longitude": -87.896109, "city": "Frankfort", "state": "IL", "county": "Will", "Abandon": 0.0, "In Progress": 0.0, "In Use": 2.0}, {"zip_code": 60424, "latitude": 41.1775, "longitude": -88.338018, "city": "Gardner", "state": "IL", "county": "Grundy", "Abandon": 0.0, "In Progress": 0.0, "In Use": 3.0}, {"zip_code": 60426, "latitude": 41.811929, "longitude": -87.68732, "city": "Harvey", "state": "IL", "county": "Cook", "Abandon": 0.0, "In Progress": 0.0, "In Use": 7.0}, {"zip_code": 60432, "latitude": 41.54273, "longitude": -88.045146, "city": "Joliet", "state": "IL", "county": "Will", "Abandon": 0.0, "In Progress": 1.0, "In Use": 55.0}, {"zip_code": 60434, "latitude": 41.52543, "longitude": -88.084208, "city": "Joliet", "state": "IL", "county": "Will", "Abandon": 15.0, "In Progress": 0.0, "In Use": 91.0}, {"zip_code": 60435, "latitude": 41.468729, "longitude": -87.938034, "city": "Joliet", "state": "IL", "county": "Will", "Abandon": 0.0, "In Progress": 0.0, "In Use": 11.0}, {"zip_code": 60436, "latitude": 41.48843, "longitude": -88.15716, "city": "Joliet", "state": "IL", "county": "Will", "Abandon": 0.0, "In Progress": 1.0, "In Use": 20.0}, {"zip_code": 60439, "latitude": 41.707431, "longitude": -87.975568, "city": "Lemont", "state": "IL", "county": "Du Page", "Abandon": 0.0, "In Progress": 1.0, "In Use": 4.0}, {"zip_code": 60441, "latitude": 41.552615, "longitude": -88.031268, "city": "Lockport", "state": "IL", "county": "Will", "Abandon": 0.0, "In Progress": 0.0, "In Use": 7.0}, {"zip_code": 60445, "latitude": 41.811929, "longitude": -87.68732, "city": "Midlothian", "state": "IL", "county": "Cook", "Abandon": 1.0, "In Progress": 0.0, "In Use": 2.0}, {"zip_code": 60447, "latitude": 41.429869, "longitude": -88.422884, "city": "Minooka", "state": "IL", "county": "Grundy", "Abandon": 0.0, "In Progress": 0.0, "In Use": 7.0}, {"zip_code": 60449, "latitude": 41.412269, "longitude": -87.786645, "city": "Monee", "state": "IL", "county": "Will", "Abandon": 0.0, "In Progress": 0.0, "In Use": 15.0}, {"zip_code": 60450, "latitude": 41.337433, "longitude": -88.430183, "city": "Morris", "state": "IL", "county": "Grundy", "Abandon": 0.0, "In Progress": 3.0, "In Use": 27.0}, {"zip_code": 60451, "latitude": 41.510802, "longitude": -87.961808, "city": "New Lenox", "state": "IL", "county": "Will", "Abandon": 0.0, "In Progress": 0.0, "In Use": 4.0}, {"zip_code": 60452, "latitude": 41.811929, "longitude": -87.68732, "city": "Oak Forest", "state": "IL", "county": "Cook", "Abandon": 0.0, "In Progress": 0.0, "In Use": 2.0}, {"zip_code": 60453, "latitude": 41.811929, "longitude": -87.68732, "city": "Oak Lawn", "state": "IL", "county": "Cook", "Abandon": 0.0, "In Progress": 0.0, "In Use": 1.0}, {"zip_code": 60455, "latitude": 41.811929, "longitude": -87.68732, "city": "Bridgeview", "state": "IL", "county": "Cook", "Abandon": 0.0, "In Progress": 0.0, "In Use": 1.0}, {"zip_code": 60466, "latitude": 41.811929, "longitude": -87.68732, "city": "Park Forest", "state": "IL", "county": "Cook", "Abandon": 0.0, "In Progress": 1.0, "In Use": 78.0}, {"zip_code": 60468, "latitude": 41.346316, "longitude": -87.772133, "city": "Peotone", "state": "IL", "county": "Will", "Abandon": 0.0, "In Progress": 0.0, "In Use": 2.0}, {"zip_code": 60473, "latitude": 41.811929, "longitude": -87.68732, "city": "South Holland", "state": "IL", "county": "Cook", "Abandon": 0.0, "In Progress": 0.0, "In Use": 5.0}, {"zip_code": 60477, "latitude": 42.143475, "longitude": -88.026517, "city": "Tinley Park", "state": "IL", "county": "Cook", "Abandon": 0.0, "In Progress": 0.0, "In Use": 100.0}, {"zip_code": 60481, "latitude": 41.35934, "longitude": -88.084716, "city": "Wilmington", "state": "IL", "county": "Will", "Abandon": 0.0, "In Progress": 0.0, "In Use": 48.0}, {"zip_code": 60482, "latitude": 41.811929, "longitude": -87.68732, "city": "Worth", "state": "IL", "county": "Cook", "Abandon": 0.0, "In Progress": 0.0, "In Use": 7.0}, {"zip_code": 60504, "latitude": 41.768399, "longitude": -88.136616, "city": "Aurora", "state": "IL", "county": "Du Page", "Abandon": 0.0, "In Progress": 0.0, "In Use": 1.0}, {"zip_code": 60506, "latitude": 41.79083, "longitude": -88.416837, "city": "Aurora", "state": "IL", "county": "Kane", "Abandon": 0.0, "In Progress": 0.0, "In Use": 10.0}, {"zip_code": 60525, "latitude": 41.811929, "longitude": -87.68732, "city": "La Grange", "state": "IL", "county": "Cook", "Abandon": 0.0, "In Progress": 0.0, "In Use": 5.0}, {"zip_code": 60532, "latitude": 41.79818, "longitude": -88.037714, "city": "Lisle", "state": "IL", "county": "Du Page", "Abandon": 0.0, "In Progress": 0.0, "In Use": 6.0}, {"zip_code": 60534, "latitude": 41.811929, "longitude": -87.68732, "city": "Lyons", "state": "IL", "county": "Cook", "Abandon": 0.0, "In Progress": 0.0, "In Use": 1.0}, {"zip_code": 60540, "latitude": 41.759029, "longitude": -88.152381, "city": "Naperville", "state": "IL", "county": "Du Page", "Abandon": 0.0, "In Progress": 0.0, "In Use": 13.0}, {"zip_code": 60541, "latitude": 41.540661, "longitude": -88.492909, "city": "Newark", "state": "IL", "county": "Kendall", "Abandon": 0.0, "In Progress": 0.0, "In Use": 1.0}, {"zip_code": 60544, "latitude": 41.632457, "longitude": -88.169698, "city": "Plainfield", "state": "IL", "county": "Will", "Abandon": 0.0, "In Progress": 0.0, "In Use": 1.0}, {"zip_code": 60545, "latitude": 41.628567, "longitude": -88.513814, "city": "Plano", "state": "IL", "county": "Kendall", "Abandon": 0.0, "In Progress": 0.0, "In Use": 2.0}, {"zip_code": 60546, "latitude": 41.811929, "longitude": -87.68732, "city": "Riverside", "state": "IL", "county": "Cook", "Abandon": 0.0, "In Progress": 0.0, "In Use": 2.0}, {"zip_code": 60550, "latitude": 41.746774, "longitude": -88.836821, "city": "Shabbona", "state": "IL", "county": "De Kalb", "Abandon": 0.0, "In Progress": 0.0, "In Use": 28.0}, {"zip_code": 60551, "latitude": 41.521219, "longitude": -88.710974, "city": "Sheridan", "state": "IL", "county": "La Salle", "Abandon": 1.0, "In Progress": 0.0, "In Use": 70.0}, {"zip_code": 60555, "latitude": 41.805422, "longitude": -88.171551, "city": "Warrenville", "state": "IL", "county": "Du Page", "Abandon": 0.0, "In Progress": 0.0, "In Use": 19.0}, {"zip_code": 60556, "latitude": 41.755215, "longitude": -88.778554, "city": "Waterman", "state": "IL", "county": "De Kalb", "Abandon": 0.0, "In Progress": 0.0, "In Use": 2.0}, {"zip_code": 60560, "latitude": 41.601679, "longitude": -88.437533, "city": "Yorkville", "state": "IL", "county": "Kendall", "Abandon": 1.0, "In Progress": 0.0, "In Use": 27.0}, {"zip_code": 60601, "latitude": 41.811929, "longitude": -87.68732, "city": "Chicago", "state": "IL", "county": "Cook", "Abandon": 0.0, "In Progress": 0.0, "In Use": 2.0}, {"zip_code": 60606, "latitude": 41.811929, "longitude": -87.68732, "city": "Chicago", "state": "IL", "county": "Cook", "Abandon": 0.0, "In Progress": 0.0, "In Use": 1.0}, {"zip_code": 60607, "latitude": 41.928881, "longitude": -87.81381, "city": "Chicago", "state": "IL", "county": "Cook", "Abandon": 0.0, "In Progress": 2.0, "In Use": 38.0}, {"zip_code": 60608, "latitude": 41.811929, "longitude": -87.68732, "city": "Chicago", "state": "IL", "county": "Cook", "Abandon": 0.0, "In Progress": 0.0, "In Use": 5.0}, {"zip_code": 60612, "latitude": 41.811929, "longitude": -87.68732, "city": "Chicago", "state": "IL", "county": "Cook", "Abandon": 0.0, "In Progress": 0.0, "In Use": 49.0}, {"zip_code": 60615, "latitude": 41.811929, "longitude": -87.68732, "city": "Chicago", "state": "IL", "county": "Cook", "Abandon": 0.0, "In Progress": 0.0, "In Use": 1.0}, {"zip_code": 60616, "latitude": 41.811929, "longitude": -87.68732, "city": "Chicago", "state": "IL", "county": "Cook", "Abandon": 0.0, "In Progress": 0.0, "In Use": 7.0}, {"zip_code": 60617, "latitude": 41.811929, "longitude": -87.68732, "city": "Chicago", "state": "IL", "county": "Cook", "Abandon": 0.0, "In Progress": 0.0, "In Use": 1.0}, {"zip_code": 60618, "latitude": 41.811929, "longitude": -87.68732, "city": "Chicago", "state": "IL", "county": "Cook", "Abandon": 0.0, "In Progress": 0.0, "In Use": 2.0}, {"zip_code": 60619, "latitude": 41.811929, "longitude": -87.68732, "city": "Chicago", "state": "IL", "county": "Cook", "Abandon": 0.0, "In Progress": 0.0, "In Use": 1.0}, {"zip_code": 60621, "latitude": 41.811929, "longitude": -87.68732, "city": "Chicago", "state": "IL", "county": "Cook", "Abandon": 0.0, "In Progress": 0.0, "In Use": 3.0}, {"zip_code": 60622, "latitude": 41.811929, "longitude": -87.68732, "city": "Chicago", "state": "IL", "county": "Cook", "Abandon": 0.0, "In Progress": 0.0, "In Use": 2.0}, {"zip_code": 60623, "latitude": 41.811929, "longitude": -87.68732, "city": "Chicago", "state": "IL", "county": "Cook", "Abandon": 0.0, "In Progress": 0.0, "In Use": 1.0}, {"zip_code": 60625, "latitude": 41.811929, "longitude": -87.68732, "city": "Chicago", "state": "IL", "county": "Cook", "Abandon": 0.0, "In Progress": 0.0, "In Use": 17.0}, {"zip_code": 60628, "latitude": 41.811929, "longitude": -87.68732, "city": "Chicago", "state": "IL", "county": "Cook", "Abandon": 0.0, "In Progress": 3.0, "In Use": 16.0}, {"zip_code": 60630, "latitude": 41.811929, "longitude": -87.68732, "city": "Chicago", "state": "IL", "county": "Cook", "Abandon": 0.0, "In Progress": 0.0, "In Use": 6.0}, {"zip_code": 60632, "latitude": 41.811929, "longitude": -87.68732, "city": "Chicago", "state": "IL", "county": "Cook", "Abandon": 0.0, "In Progress": 0.0, "In Use": 1.0}, {"zip_code": 60633, "latitude": 41.811929, "longitude": -87.68732, "city": "Chicago", "state": "IL", "county": "Cook", "Abandon": 0.0, "In Progress": 0.0, "In Use": 22.0}, {"zip_code": 60634, "latitude": 41.933355, "longitude": -87.816309, "city": "Chicago", "state": "IL", "county": "Cook", "Abandon": 6.0, "In Progress": 2.0, "In Use": 27.0}, {"zip_code": 60638, "latitude": 41.811929, "longitude": -87.68732, "city": "Chicago", "state": "IL", "county": "Cook", "Abandon": 0.0, "In Progress": 0.0, "In Use": 3.0}, {"zip_code": 60643, "latitude": 41.811929, "longitude": -87.68732, "city": "Chicago", "state": "IL", "county": "Cook", "Abandon": 0.0, "In Progress": 0.0, "In Use": 1.0}, {"zip_code": 60644, "latitude": 41.811929, "longitude": -87.68732, "city": "Chicago", "state": "IL", "county": "Cook", "Abandon": 1.0, "In Progress": 0.0, "In Use": 4.0}, {"zip_code": 60646, "latitude": 42.00663, "longitude": -87.75901, "city": "Chicago", "state": "IL", "county": "Cook", "Abandon": 0.0, "In Progress": 0.0, "In Use": 1.0}, {"zip_code": 60647, "latitude": 41.811929, "longitude": -87.68732, "city": "Chicago", "state": "IL", "county": "Cook", "Abandon": 0.0, "In Progress": 0.0, "In Use": 1.0}, {"zip_code": 60651, "latitude": 41.811929, "longitude": -87.68732, "city": "Chicago", "state": "IL", "county": "Cook", "Abandon": 0.0, "In Progress": 0.0, "In Use": 1.0}, {"zip_code": 60652, "latitude": 41.811929, "longitude": -87.68732, "city": "Chicago", "state": "IL", "county": "Cook", "Abandon": 0.0, "In Progress": 0.0, "In Use": 1.0}, {"zip_code": 60653, "latitude": 41.811929, "longitude": -87.68732, "city": "Chicago", "state": "IL", "county": "Cook", "Abandon": 0.0, "In Progress": 0.0, "In Use": 1.0}, {"zip_code": 60656, "latitude": 41.97353, "longitude": -87.865763, "city": "Chicago", "state": "IL", "county": "Cook", "Abandon": 0.0, "In Progress": 0.0, "In Use": 3.0}, {"zip_code": 60661, "latitude": 41.811929, "longitude": -87.68732, "city": "Chicago", "state": "IL", "county": "Cook", "Abandon": 0.0, "In Progress": 0.0, "In Use": 1.0}, {"zip_code": 60680, "latitude": 41.811929, "longitude": -87.68732, "city": "Chicago", "state": "IL", "county": "Cook", "Abandon": 0.0, "In Progress": 0.0, "In Use": 1.0}, {"zip_code": 60714, "latitude": 42.031179, "longitude": -87.811163, "city": "Niles", "state": "IL", "county": "Cook", "Abandon": 0.0, "In Progress": 0.0, "In Use": 1.0}, {"zip_code": 60803, "latitude": 41.811929, "longitude": -87.68732, "city": "Alsip", "state": "IL", "county": "Cook", "Abandon": 0.0, "In Progress": 0.0, "In Use": 1.0}, {"zip_code": 60804, "latitude": 41.811929, "longitude": -87.68732, "city": "Cicero", "state": "IL", "county": "Cook", "Abandon": 0.0, "In Progress": 0.0, "In Use": 1.0}, {"zip_code": 60827, "latitude": 41.811929, "longitude": -87.68732, "city": "Riverdale", "state": "IL", "county": "Cook", "Abandon": 0.0, "In Progress": 0.0, "In Use": 1.0}, {"zip_code": 60901, "latitude": 41.111151, "longitude": -87.874618, "city": "Kankakee", "state": "IL", "county": "Kankakee", "Abandon": 5.0, "In Progress": 1.0, "In Use": 61.0}, {"zip_code": 60911, "latitude": 40.876259, "longitude": -87.973929, "city": "Ashkum", "state": "IL", "county": "Iroquois", "Abandon": 0.0, "In Progress": 1.0, "In Use": 7.0}, {"zip_code": 60912, "latitude": 40.963099, "longitude": -87.625942, "city": "Beaverville", "state": "IL", "county": "Iroquois", "Abandon": 0.0, "In Progress": 0.0, "In Use": 11.0}, {"zip_code": 60914, "latitude": 41.180968, "longitude": -87.847038, "city": "Bourbonnais", "state": "IL", "county": "Kankakee", "Abandon": 1.0, "In Progress": 0.0, "In Use": 47.0}, {"zip_code": 60918, "latitude": 40.600817, "longitude": -88.023748, "city": "Buckley", "state": "IL", "county": "Iroquois", "Abandon": 0.0, "In Progress": 0.0, "In Use": 6.0}, {"zip_code": 60936, "latitude": 40.696479, "longitude": -88.318387, "city": "Gibson City", "state": "IL", "county": "Ford", "Abandon": 0.0, "In Progress": 0.0, "In Use": 4.0}, {"zip_code": 60950, "latitude": 41.173292, "longitude": -87.87675, "city": "Manteno", "state": "IL", "county": "Kankakee", "Abandon": 14.0, "In Progress": 0.0, "In Use": 35.0}, {"zip_code": 60966, "latitude": 40.75308, "longitude": -87.58941, "city": "Sheldon", "state": "IL", "county": "Iroquois", "Abandon": 0.0, "In Progress": 0.0, "In Use": 1.0}, {"zip_code": 60970, "latitude": 40.749938, "longitude": -87.798478, "city": "Watseka", "state": "IL", "county": "Iroquois", "Abandon": 0.0, "In Progress": 0.0, "In Use": 4.0}, {"zip_code": 61001, "latitude": 42.454161, "longitude": -90.118471, "city": "Apple River", "state": "IL", "county": "Jo Daviess", "Abandon": 0.0, "In Progress": 0.0, "In Use": 40.0}, {"zip_code": 61008, "latitude": 42.276381, "longitude": -88.823215, "city": "Belvidere", "state": "IL", "county": "Boone", "Abandon": 0.0, "In Progress": 0.0, "In Use": 6.0}, {"zip_code": 61011, "latitude": 42.397024, "longitude": -88.843027, "city": "Caledonia", "state": "IL", "county": "Boone", "Abandon": 0.0, "In Progress": 0.0, "In Use": 1.0}, {"zip_code": 61020, "latitude": 42.106337, "longitude": -89.099201, "city": "Davis Junction", "state": "IL", "county": "Ogle", "Abandon": 0.0, "In Progress": 0.0, "In Use": 3.0}, {"zip_code": 61021, "latitude": 41.809229, "longitude": -89.417156, "city": "Dixon", "state": "IL", "county": "Lee", "Abandon": 0.0, "In Progress": 0.0, "In Use": 76.0}, {"zip_code": 61028, "latitude": 42.309263, "longitude": -90.181064, "city": "Elizabeth", "state": "IL", "county": "Jo Daviess", "Abandon": 0.0, "In Progress": 0.0, "In Use": 4.0}, {"zip_code": 61030, "latitude": 42.120046, "longitude": -89.312592, "city": "Forreston", "state": "IL", "county": "Ogle", "Abandon": 0.0, "In Progress": 0.0, "In Use": 4.0}, {"zip_code": 61031, "latitude": 41.816006, "longitude": -89.311037, "city": "Franklin Grove", "state": "IL", "county": "Lee", "Abandon": 0.0, "In Progress": 0.0, "In Use": 14.0}, {"zip_code": 61032, "latitude": 42.323529, "longitude": -89.591606, "city": "Freeport", "state": "IL", "county": "Stephenson", "Abandon": 0.0, "In Progress": 1.0, "In Use": 6.0}, {"zip_code": 61036, "latitude": 42.382277, "longitude": -90.312588, "city": "Galena", "state": "IL", "county": "Jo Daviess", "Abandon": 0.0, "In Progress": 1.0, "In Use": 19.0}, {"zip_code": 61042, "latitude": 41.689533, "longitude": -89.545604, "city": "Harmon", "state": "IL", "county": "Lee", "Abandon": 0.0, "In Progress": 0.0, "In Use": 10.0}, {"zip_code": 61048, "latitude": 42.386301, "longitude": -89.816756, "city": "Lena", "state": "IL", "county": "Stephenson", "Abandon": 0.0, "In Progress": 0.0, "In Use": 27.0}, {"zip_code": 61053, "latitude": 42.093181, "longitude": -89.968127, "city": "Mount Carroll", "state": "IL", "county": "Carroll", "Abandon": 0.0, "In Progress": 0.0, "In Use": 4.0}, {"zip_code": 61054, "latitude": 42.058183, "longitude": -89.352968, "city": "Mount Morris", "state": "IL", "county": "Ogle", "Abandon": 1.0, "In Progress": 0.0, "In Use": 56.0}, {"zip_code": 61061, "latitude": 42.011025, "longitude": -89.253887, "city": "Oregon", "state": "IL", "county": "Ogle", "Abandon": 1.0, "In Progress": 0.0, "In Use": 51.0}, {"zip_code": 61063, "latitude": 42.3104, "longitude": -89.311162, "city": "Pecatonica", "state": "IL", "county": "Winnebago", "Abandon": 0.0, "In Progress": 0.0, "In Use": 4.0}, {"zip_code": 61071, "latitude": 41.687083, "longitude": -89.728269, "city": "Rock Falls", "state": "IL", "county": "Whiteside", "Abandon": 1.0, "In Progress": 1.0, "In Use": 13.0}, {"zip_code": 61072, "latitude": 42.381926, "longitude": -89.142856, "city": "Rockton", "state": "IL", "county": "Winnebago", "Abandon": 0.0, "In Progress": 0.0, "In Use": 1.0}, {"zip_code": 61073, "latitude": 42.416908, "longitude": -89.000227, "city": "Roscoe", "state": "IL", "county": "Winnebago", "Abandon": 0.0, "In Progress": 0.0, "In Use": 1.0}, {"zip_code": 61074, "latitude": 42.077282, "longitude": -90.005039, "city": "Savanna", "state": "IL", "county": "Carroll", "Abandon": 1.0, "In Progress": 0.0, "In Use": 72.0}, {"zip_code": 61080, "latitude": 42.38648, "longitude": -89.090975, "city": "South Beloit", "state": "IL", "county": "Winnebago", "Abandon": 0.0, "In Progress": 0.0, "In Use": 13.0}, {"zip_code": 61081, "latitude": 41.835669, "longitude": -89.745941, "city": "Sterling", "state": "IL", "county": "Whiteside", "Abandon": 0.0, "In Progress": 0.0, "In Use": 4.0}, {"zip_code": 61085, "latitude": 42.349517, "longitude": -90.085356, "city": "Stockton", "state": "IL", "county": "Jo Daviess", "Abandon": 0.0, "In Progress": 0.0, "In Use": 4.0}, {"zip_code": 61101, "latitude": 42.33342, "longitude": -89.157198, "city": "Rockford", "state": "IL", "county": "Winnebago", "Abandon": 0.0, "In Progress": 0.0, "In Use": 1.0}, {"zip_code": 61103, "latitude": 42.341983, "longitude": -89.078829, "city": "Rockford", "state": "IL", "county": "Winnebago", "Abandon": 0.0, "In Progress": 0.0, "In Use": 1.0}, {"zip_code": 61105, "latitude": 42.325364, "longitude": -89.170527, "city": "Rockford", "state": "IL", "county": "Winnebago", "Abandon": 0.0, "In Progress": 0.0, "In Use": 12.0}, {"zip_code": 61107, "latitude": 42.284055, "longitude": -89.01621, "city": "Rockford", "state": "IL", "county": "Winnebago", "Abandon": 0.0, "In Progress": 0.0, "In Use": 6.0}, {"zip_code": 61108, "latitude": 42.247643, "longitude": -88.999892, "city": "Rockford", "state": "IL", "county": "Winnebago", "Abandon": 0.0, "In Progress": 0.0, "In Use": 1.0}, {"zip_code": 61109, "latitude": 42.196681, "longitude": -89.065539, "city": "Rockford", "state": "IL", "county": "Winnebago", "Abandon": 0.0, "In Progress": 0.0, "In Use": 3.0}, {"zip_code": 61111, "latitude": 42.341767, "longitude": -89.004716, "city": "Loves Park", "state": "IL", "county": "Winnebago", "Abandon": 1.0, "In Progress": 0.0, "In Use": 7.0}, {"zip_code": 61115, "latitude": 42.354546, "longitude": -89.039675, "city": "Machesney Park", "state": "IL", "county": "Winnebago", "Abandon": 0.0, "In Progress": 0.0, "In Use": 4.0}, {"zip_code": 61201, "latitude": 41.495083, "longitude": -90.604899, "city": "Rock Island", "state": "IL", "county": "Rock Island", "Abandon": 3.0, "In Progress": 0.0, "In Use": 56.0}, {"zip_code": 61230, "latitude": 41.729562, "longitude": -90.159676, "city": "Albany", "state": "IL", "county": "Whiteside", "Abandon": 0.0, "In Progress": 0.0, "In Use": 2.0}, {"zip_code": 61231, "latitude": 41.197762, "longitude": -90.730944, "city": "Aledo", "state": "IL", "county": "Mercer", "Abandon": 0.0, "In Progress": 1.0, "In Use": 3.0}, {"zip_code": 61233, "latitude": 41.295367, "longitude": -90.290476, "city": "Andover", "state": "IL", "county": "Henry", "Abandon": 0.0, "In Progress": 0.0, "In Use": 1.0}, {"zip_code": 61235, "latitude": 41.405502, "longitude": -89.998274, "city": "Atkinson", "state": "IL", "county": "Henry", "Abandon": 0.0, "In Progress": 0.0, "In Use": 16.0}, {"zip_code": 61240, "latitude": 41.401019, "longitude": -90.575785, "city": "Coal Valley", "state": "IL", "county": "Rock Island", "Abandon": 0.0, "In Progress": 0.0, "In Use": 2.0}, {"zip_code": 61244, "latitude": 41.562693, "longitude": -90.512483, "city": "East Moline", "state": "IL", "county": "Rock Island", "Abandon": 0.0, "In Progress": 1.0, "In Use": 39.0}, {"zip_code": 61254, "latitude": 41.437746, "longitude": -90.158163, "city": "Geneseo", "state": "IL", "county": "Henry", "Abandon": 0.0, "In Progress": 0.0, "In Use": 7.0}, {"zip_code": 61256, "latitude": 41.527582, "longitude": -90.446341, "city": "Hampton", "state": "IL", "county": "Rock Island", "Abandon": 0.0, "In Progress": 0.0, "In Use": 2.0}, {"zip_code": 61262, "latitude": 41.285461, "longitude": -90.319658, "city": "Lynn Center", "state": "IL", "county": "Henry", "Abandon": 0.0, "In Progress": 0.0, "In Use": 3.0}, {"zip_code": 61264, "latitude": 41.420305, "longitude": -90.595736, "city": "Milan", "state": "IL", "county": "Rock Island", "Abandon": 0.0, "In Progress": 0.0, "In Use": 12.0}, {"zip_code": 61265, "latitude": 41.529431, "longitude": -90.528972, "city": "Moline", "state": "IL", "county": "Rock Island", "Abandon": 0.0, "In Progress": 3.0, "In Use": 6.0}, {"zip_code": 61270, "latitude": 41.781381, "longitude": -90.002217, "city": "Morrison", "state": "IL", "county": "Whiteside", "Abandon": 0.0, "In Progress": 0.0, "In Use": 40.0}, {"zip_code": 61277, "latitude": 41.654462, "longitude": -89.924411, "city": "Prophetstown", "state": "IL", "county": "Whiteside", "Abandon": 0.0, "In Progress": 0.0, "In Use": 20.0}, {"zip_code": 61278, "latitude": 41.585883, "longitude": -90.343228, "city": "Rapids City", "state": "IL", "county": "Rock Island", "Abandon": 0.0, "In Progress": 0.0, "In Use": 2.0}, {"zip_code": 61282, "latitude": 41.560381, "longitude": -90.51753, "city": "Silvis", "state": "IL", "county": "Rock Island", "Abandon": 0.0, "In Progress": 0.0, "In Use": 3.0}, {"zip_code": 61301, "latitude": 41.365092, "longitude": -89.0866, "city": "La Salle", "state": "IL", "county": "La Salle", "Abandon": 0.0, "In Progress": 0.0, "In Use": 11.0}, {"zip_code": 61310, "latitude": 41.721016, "longitude": -89.299671, "city": "Amboy", "state": "IL", "county": "Lee", "Abandon": 0.0, "In Progress": 0.0, "In Use": 4.0}, {"zip_code": 61314, "latitude": 41.306814, "longitude": -89.653036, "city": "Buda", "state": "IL", "county": "Bureau", "Abandon": 0.0, "In Progress": 0.0, "In Use": 1.0}, {"zip_code": 61318, "latitude": 41.713223, "longitude": -89.091458, "city": "Compton", "state": "IL", "county": "Lee", "Abandon": 0.0, "In Progress": 0.0, "In Use": 5.0}, {"zip_code": 61322, "latitude": 41.309194, "longitude": -89.325221, "city": "Depue", "state": "IL", "county": "Bureau", "Abandon": 0.0, "In Progress": 0.0, "In Use": 8.0}, {"zip_code": 61329, "latitude": 41.37951, "longitude": -89.203827, "city": "Ladd", "state": "IL", "county": "Bureau", "Abandon": 0.0, "In Progress": 0.0, "In Use": 2.0}, {"zip_code": 61341, "latitude": 41.212787, "longitude": -88.833689, "city": "Marseilles", "state": "IL", "county": "La Salle", "Abandon": 0.0, "In Progress": 4.0, "In Use": 79.0}, {"zip_code": 61348, "latitude": 41.225813, "longitude": -89.040428, "city": "Oglesby", "state": "IL", "county": "La Salle", "Abandon": 1.0, "In Progress": 0.0, "In Use": 1.0}, {"zip_code": 61350, "latitude": 41.248925, "longitude": -88.833337, "city": "Ottawa", "state": "IL", "county": "La Salle", "Abandon": 0.0, "In Progress": 1.0, "In Use": 22.0}, {"zip_code": 61353, "latitude": 41.69376, "longitude": -88.995749, "city": "Paw Paw", "state": "IL", "county": "Lee", "Abandon": 0.0, "In Progress": 0.0, "In Use": 4.0}, {"zip_code": 61356, "latitude": 41.424736, "longitude": -89.452044, "city": "Princeton", "state": "IL", "county": "Bureau", "Abandon": 0.0, "In Progress": 0.0, "In Use": 9.0}, {"zip_code": 61360, "latitude": 41.221524, "longitude": -88.835029, "city": "Seneca", "state": "IL", "county": "La Salle", "Abandon": 0.0, "In Progress": 0.0, "In Use": 2.0}, {"zip_code": 61361, "latitude": 41.404427, "longitude": -89.530149, "city": "Sheffield", "state": "IL", "county": "Bureau", "Abandon": 0.0, "In Progress": 0.0, "In Use": 21.0}, {"zip_code": 61362, "latitude": 41.423455, "longitude": -89.506797, "city": "Spring Valley", "state": "IL", "county": "Bureau", "Abandon": 0.0, "In Progress": 0.0, "In Use": 4.0}, {"zip_code": 61364, "latitude": 41.164177, "longitude": -88.85632, "city": "Streator", "state": "IL", "county": "La Salle", "Abandon": 0.0, "In Progress": 1.0, "In Use": 1.0}, {"zip_code": 61368, "latitude": 41.248455, "longitude": -89.521465, "city": "Tiskilwa", "state": "IL", "county": "Bureau", "Abandon": 0.0, "In Progress": 0.0, "In Use": 1.0}, {"zip_code": 61373, "latitude": 41.411759, "longitude": -89.008197, "city": "Utica", "state": "IL", "county": "La Salle", "Abandon": 20.0, "In Progress": 0.0, "In Use": 79.0}, {"zip_code": 61376, "latitude": 41.453979, "longitude": -89.478453, "city": "Walnut", "state": "IL", "county": "Bureau", "Abandon": 0.0, "In Progress": 0.0, "In Use": 1.0}, {"zip_code": 61377, "latitude": 41.029236, "longitude": -89.134955, "city": "Wenona", "state": "IL", "county": "Marshall", "Abandon": 0.0, "In Progress": 0.0, "In Use": 5.0}, {"zip_code": 61379, "latitude": 41.442109, "longitude": -89.44646, "city": "Wyanet", "state": "IL", "county": "Bureau", "Abandon": 2.0, "In Progress": 0.0, "In Use": 11.0}, {"zip_code": 61401, "latitude": 40.964613, "longitude": -90.213654, "city": "Galesburg", "state": "IL", "county": "Knox", "Abandon": 0.0, "In Progress": 1.0, "In Use": 44.0}, {"zip_code": 61413, "latitude": 41.20188, "longitude": -90.245619, "city": "Alpha", "state": "IL", "county": "Henry", "Abandon": 0.0, "In Progress": 0.0, "In Use": 2.0}, {"zip_code": 61418, "latitude": 40.853583, "longitude": -90.864536, "city": "Biggsville", "state": "IL", "county": "Henderson", "Abandon": 0.0, "In Progress": 1.0, "In Use": 3.0}, {"zip_code": 61419, "latitude": 41.197682, "longitude": -90.118344, "city": "Bishop Hill", "state": "IL", "county": "Henry", "Abandon": 0.0, "In Progress": 0.0, "In Use": 12.0}, {"zip_code": 61420, "latitude": 40.547789, "longitude": -90.762736, "city": "Blandinsville", "state": "IL", "county": "Mcdonough", "Abandon": 0.0, "In Progress": 0.0, "In Use": 1.0}, {"zip_code": 61428, "latitude": 41.007962, "longitude": -90.102455, "city": "Dahinda", "state": "IL", "county": "Knox", "Abandon": 0.0, "In Progress": 0.0, "In Use": 2.0}, {"zip_code": 61433, "latitude": 40.449305, "longitude": -90.161761, "city": "Fiatt", "state": "IL", "county": "Fulton", "Abandon": 0.0, "In Progress": 0.0, "In Use": 8.0}, {"zip_code": 61434, "latitude": 41.212281, "longitude": -90.091976, "city": "Galva", "state": "IL", "county": "Henry", "Abandon": 0.0, "In Progress": 0.0, "In Use": 4.0}, {"zip_code": 61442, "latitude": 41.133733, "longitude": -90.711121, "city": "Keithsburg", "state": "IL", "county": "Mercer", "Abandon": 0.0, "In Progress": 0.0, "In Use": 4.0}, {"zip_code": 61443, "latitude": 41.257262, "longitude": -90.118355, "city": "Kewanee", "state": "IL", "county": "Henry", "Abandon": 0.0, "In Progress": 0.0, "In Use": 42.0}, {"zip_code": 61455, "latitude": 40.459904, "longitude": -90.660675, "city": "Macomb", "state": "IL", "county": "Mcdonough", "Abandon": 0.0, "In Progress": 2.0, "In Use": 42.0}, {"zip_code": 61462, "latitude": 40.924563, "longitude": -90.618313, "city": "Monmouth", "state": "IL", "county": "Warren", "Abandon": 0.0, "In Progress": 1.0, "In Use": 8.0}, {"zip_code": 61469, "latitude": 40.937485, "longitude": -90.948392, "city": "Oquawka", "state": "IL", "county": "Henderson", "Abandon": 0.0, "In Progress": 0.0, "In Use": 2.0}, {"zip_code": 61485, "latitude": 41.00733, "longitude": -90.085007, "city": "Victoria", "state": "IL", "county": "Knox", "Abandon": 0.0, "In Progress": 0.0, "In Use": 2.0}, {"zip_code": 61490, "latitude": 41.208513, "longitude": -90.230506, "city": "Woodhull", "state": "IL", "county": "Henry", "Abandon": 0.0, "In Progress": 0.0, "In Use": 14.0}, {"zip_code": 61491, "latitude": 41.085606, "longitude": -89.788462, "city": "Wyoming", "state": "IL", "county": "Stark", "Abandon": 0.0, "In Progress": 0.0, "In Use": 15.0}, {"zip_code": 61501, "latitude": 40.243173, "longitude": -90.324653, "city": "Astoria", "state": "IL", "county": "Fulton", "Abandon": 0.0, "In Progress": 0.0, "In Use": 10.0}, {"zip_code": 61516, "latitude": 40.853248, "longitude": -89.131937, "city": "Benson", "state": "IL", "county": "Woodford", "Abandon": 0.0, "In Progress": 0.0, "In Use": 2.0}, {"zip_code": 61517, "latitude": 40.814233, "longitude": -89.859603, "city": "Brimfield", "state": "IL", "county": "Peoria", "Abandon": 0.0, "In Progress": 0.0, "In Use": 40.0}, {"zip_code": 61520, "latitude": 40.445611, "longitude": -90.151535, "city": "Canton", "state": "IL", "county": "Fulton", "Abandon": 0.0, "In Progress": 1.0, "In Use": 43.0}, {"zip_code": 61528, "latitude": 40.836603, "longitude": -89.726242, "city": "Edwards", "state": "IL", "county": "Peoria", "Abandon": 0.0, "In Progress": 0.0, "In Use": 11.0}, {"zip_code": 61532, "latitude": 40.305929, "longitude": -89.8716, "city": "Forest City", "state": "IL", "county": "Mason", "Abandon": 0.0, "In Progress": 0.0, "In Use": 7.0}, {"zip_code": 61533, "latitude": 40.589183, "longitude": -89.815144, "city": "Glasford", "state": "IL", "county": "Peoria", "Abandon": 0.0, "In Progress": 0.0, "In Use": 8.0}, {"zip_code": 61536, "latitude": 40.685646, "longitude": -89.781809, "city": "Hanna City", "state": "IL", "county": "Peoria", "Abandon": 0.0, "In Progress": 0.0, "In Use": 36.0}, {"zip_code": 61540, "latitude": 41.007987, "longitude": -89.337636, "city": "Lacon", "state": "IL", "county": "Marshall", "Abandon": 0.0, "In Progress": 0.0, "In Use": 13.0}, {"zip_code": 61542, "latitude": 40.463185, "longitude": -90.166942, "city": "Lewistown", "state": "IL", "county": "Fulton", "Abandon": 2.0, "In Progress": 0.0, "In Use": 15.0}, {"zip_code": 61545, "latitude": 40.879257, "longitude": -89.370304, "city": "Lowpoint", "state": "IL", "county": "Woodford", "Abandon": 0.0, "In Progress": 0.0, "In Use": 12.0}, {"zip_code": 61546, "latitude": 40.366447, "longitude": -89.880969, "city": "Manito", "state": "IL", "county": "Mason", "Abandon": 0.0, "In Progress": 1.0, "In Use": 10.0}, {"zip_code": 61548, "latitude": 40.833004, "longitude": -89.358019, "city": "Metamora", "state": "IL", "county": "Woodford", "Abandon": 0.0, "In Progress": 0.0, "In Use": 7.0}, {"zip_code": 61550, "latitude": 40.591322, "longitude": -89.425339, "city": "Morton", "state": "IL", "county": "Tazewell", "Abandon": 0.0, "In Progress": 1.0, "In Use": 9.0}, {"zip_code": 61567, "latitude": 40.344336, "longitude": -89.885895, "city": "Topeka", "state": "IL", "county": "Mason", "Abandon": 0.0, "In Progress": 0.0, "In Use": 17.0}, {"zip_code": 61605, "latitude": 40.676637, "longitude": -89.633787, "city": "Peoria", "state": "IL", "county": "Peoria", "Abandon": 0.0, "In Progress": 0.0, "In Use": 1.0}, {"zip_code": 61607, "latitude": 40.632085, "longitude": -89.690349, "city": "Peoria", "state": "IL", "county": "Peoria", "Abandon": 1.0, "In Progress": 1.0, "In Use": 3.0}, {"zip_code": 61611, "latitude": 40.563589, "longitude": -89.543319, "city": "East Peoria", "state": "IL", "county": "Tazewell", "Abandon": 0.0, "In Progress": 0.0, "In Use": 5.0}, {"zip_code": 61614, "latitude": 40.768117, "longitude": -89.602647, "city": "Peoria", "state": "IL", "county": "Peoria", "Abandon": 0.0, "In Progress": 0.0, "In Use": 12.0}, {"zip_code": 61615, "latitude": 40.766087, "longitude": -89.644982, "city": "Peoria", "state": "IL", "county": "Peoria", "Abandon": 0.0, "In Progress": 0.0, "In Use": 83.0}, {"zip_code": 61701, "latitude": 40.462041, "longitude": -88.850396, "city": "Bloomington", "state": "IL", "county": "Mclean", "Abandon": 0.0, "In Progress": 0.0, "In Use": 21.0}, {"zip_code": 61720, "latitude": 40.568549, "longitude": -88.722113, "city": "Anchor", "state": "IL", "county": "Mclean", "Abandon": 0.0, "In Progress": 0.0, "In Use": 1.0}, {"zip_code": 61725, "latitude": 40.580974, "longitude": -89.178681, "city": "Carlock", "state": "IL", "county": "Mclean", "Abandon": 0.0, "In Progress": 0.0, "In Use": 3.0}, {"zip_code": 61727, "latitude": 40.152822, "longitude": -88.947118, "city": "Clinton", "state": "IL", "county": "Dewitt", "Abandon": 0.0, "In Progress": 0.0, "In Use": 39.0}, {"zip_code": 61729, "latitude": 40.617077, "longitude": -89.183981, "city": "Congerville", "state": "IL", "county": "Woodford", "Abandon": 0.0, "In Progress": 0.0, "In Use": 2.0}, {"zip_code": 61734, "latitude": 40.424081, "longitude": -89.600252, "city": "Delavan", "state": "IL", "county": "Tazewell", "Abandon": 0.0, "In Progress": 0.0, "In Use": 1.0}, {"zip_code": 61735, "latitude": 40.208276, "longitude": -88.808015, "city": "Dewitt", "state": "IL", "county": "Dewitt", "Abandon": 1.0, "In Progress": 0.0, "In Use": 13.0}, {"zip_code": 61738, "latitude": 40.684846, "longitude": -89.106751, "city": "El Paso", "state": "IL", "county": "Woodford", "Abandon": 0.0, "In Progress": 0.0, "In Use": 3.0}, {"zip_code": 61741, "latitude": 40.754176, "longitude": -88.393085, "city": "Forrest", "state": "IL", "county": "Livingston", "Abandon": 0.0, "In Progress": 0.0, "In Use": 3.0}, {"zip_code": 61747, "latitude": 40.535696, "longitude": -89.445054, "city": "Hopedale", "state": "IL", "county": "Tazewell", "Abandon": 0.0, "In Progress": 0.0, "In Use": 3.0}, {"zip_code": 61752, "latitude": 40.459553, "longitude": -88.849599, "city": "Le Roy", "state": "IL", "county": "Mclean", "Abandon": 0.0, "In Progress": 0.0, "In Use": 55.0}, {"zip_code": 61754, "latitude": 40.31522, "longitude": -89.194639, "city": "Mc Lean", "state": "IL", "county": "Mclean", "Abandon": 0.0, "In Progress": 0.0, "In Use": 3.0}, {"zip_code": 61755, "latitude": 40.530344, "longitude": -89.369718, "city": "Mackinaw", "state": "IL", "county": "Tazewell", "Abandon": 0.0, "In Progress": 0.0, "In Use": 1.0}, {"zip_code": 61761, "latitude": 40.530375, "longitude": -88.7989, "city": "Normal", "state": "IL", "county": "Mclean", "Abandon": 0.0, "In Progress": 2.0, "In Use": 100.0}, {"zip_code": 61764, "latitude": 40.87479, "longitude": -88.630826, "city": "Pontiac", "state": "IL", "county": "Livingston", "Abandon": 0.0, "In Progress": 1.0, "In Use": 103.0}, {"zip_code": 61776, "latitude": 40.562341, "longitude": -88.897711, "city": "Towanda", "state": "IL", "county": "Mclean", "Abandon": 0.0, "In Progress": 0.0, "In Use": 3.0}, {"zip_code": 61790, "latitude": 40.51032, "longitude": -88.99803, "city": "Normal", "state": "IL", "county": "Mclean", "Abandon": 0.0, "In Progress": 0.0, "In Use": 2.0}, {"zip_code": 61801, "latitude": 40.133657, "longitude": -88.182071, "city": "Urbana", "state": "IL", "county": "Champaign", "Abandon": 0.0, "In Progress": 2.0, "In Use": 213.0}, {"zip_code": 61810, "latitude": 39.923693, "longitude": -87.899719, "city": "Allerton", "state": "IL", "county": "Vermilion", "Abandon": 0.0, "In Progress": 0.0, "In Use": 1.0}, {"zip_code": 61813, "latitude": 39.908567, "longitude": -88.599987, "city": "Bement", "state": "IL", "county": "Piatt", "Abandon": 0.0, "In Progress": 0.0, "In Use": 2.0}, {"zip_code": 61820, "latitude": 40.101777, "longitude": -88.197166, "city": "Champaign", "state": "IL", "county": "Champaign", "Abandon": 0.0, "In Progress": 1.0, "In Use": 138.0}, {"zip_code": 61822, "latitude": 40.131682, "longitude": -88.28541, "city": "Champaign", "state": "IL", "county": "Champaign", "Abandon": 0.0, "In Progress": 0.0, "In Use": 5.0}, {"zip_code": 61832, "latitude": 40.10398, "longitude": -87.757792, "city": "Danville", "state": "IL", "county": "Vermilion", "Abandon": 0.0, "In Progress": 0.0, "In Use": 6.0}, {"zip_code": 61834, "latitude": 40.160162, "longitude": -87.67293, "city": "Danville", "state": "IL", "county": "Vermilion", "Abandon": 0.0, "In Progress": 0.0, "In Use": 30.0}, {"zip_code": 61842, "latitude": 40.18631, "longitude": -88.69107, "city": "Farmer City", "state": "IL", "county": "Dewitt", "Abandon": 0.0, "In Progress": 0.0, "In Use": 4.0}, {"zip_code": 61844, "latitude": 40.139763, "longitude": -87.86895, "city": "Fithian", "state": "IL", "county": "Vermilion", "Abandon": 0.0, "In Progress": 0.0, "In Use": 4.0}, {"zip_code": 61846, "latitude": 39.979714, "longitude": -87.734359, "city": "Georgetown", "state": "IL", "county": "Vermilion", "Abandon": 0.0, "In Progress": 0.0, "In Use": 5.0}, {"zip_code": 61852, "latitude": 39.91593, "longitude": -88.034929, "city": "Longview", "state": "IL", "county": "Champaign", "Abandon": 0.0, "In Progress": 0.0, "In Use": 4.0}, {"zip_code": 61854, "latitude": 40.193243, "longitude": -88.545144, "city": "Mansfield", "state": "IL", "county": "Piatt", "Abandon": 0.0, "In Progress": 0.0, "In Use": 2.0}, {"zip_code": 61856, "latitude": 40.050289, "longitude": -88.597923, "city": "Monticello", "state": "IL", "county": "Piatt", "Abandon": 0.0, "In Progress": 0.0, "In Use": 9.0}, {"zip_code": 61858, "latitude": 40.133222, "longitude": -87.756376, "city": "Oakwood", "state": "IL", "county": "Vermilion", "Abandon": 0.0, "In Progress": 0.0, "In Use": 83.0}, {"zip_code": 61863, "latitude": 40.090766, "longitude": -88.1675, "city": "Pesotum", "state": "IL", "county": "Champaign", "Abandon": 0.0, "In Progress": 0.0, "In Use": 4.0}, {"zip_code": 61866, "latitude": 40.249954, "longitude": -88.113686, "city": "Rantoul", "state": "IL", "county": "Champaign", "Abandon": 6.0, "In Progress": 4.0, "In Use": 0.0}, {"zip_code": 61874, "latitude": 40.068677, "longitude": -88.253105, "city": "Savoy", "state": "IL", "county": "Champaign", "Abandon": 0.0, "In Progress": 0.0, "In Use": 32.0}, {"zip_code": 61914, "latitude": 39.638, "longitude": -88.75367, "city": "Bethany", "state": "IL", "county": "Moultrie", "Abandon": 0.0, "In Progress": 3.0, "In Use": 6.0}, {"zip_code": 61920, "latitude": 39.499622, "longitude": -88.160348, "city": "Charleston", "state": "IL", "county": "Coles", "Abandon": 0.0, "In Progress": 0.0, "In Use": 70.0}, {"zip_code": 61930, "latitude": 39.695357, "longitude": -88.127173, "city": "Hindsboro", "state": "IL", "county": "Douglas", "Abandon": 0.0, "In Progress": 1.0, "In Use": 0.0}, {"zip_code": 61938, "latitude": 39.505679, "longitude": -88.247012, "city": "Mattoon", "state": "IL", "county": "Coles", "Abandon": 0.0, "In Progress": 0.0, "In Use": 9.0}, {"zip_code": 61943, "latitude": 39.62812, "longitude": -88.217663, "city": "Oakland", "state": "IL", "county": "Coles", "Abandon": 0.0, "In Progress": 0.0, "In Use": 22.0}, {"zip_code": 61944, "latitude": 39.638496, "longitude": -87.740488, "city": "Paris", "state": "IL", "county": "Edgar", "Abandon": 0.0, "In Progress": 0.0, "In Use": 10.0}, {"zip_code": 61951, "latitude": 39.588093, "longitude": -88.633539, "city": "Sullivan", "state": "IL", "county": "Moultrie", "Abandon": 0.0, "In Progress": 0.0, "In Use": 16.0}, {"zip_code": 61953, "latitude": 39.787385, "longitude": -88.274137, "city": "Tuscola", "state": "IL", "county": "Douglas", "Abandon": 0.0, "In Progress": 0.0, "In Use": 6.0}, {"zip_code": 62002, "latitude": 38.929065, "longitude": -89.968862, "city": "Alton", "state": "IL", "county": "Madison", "Abandon": 0.0, "In Progress": 0.0, "In Use": 25.0}, {"zip_code": 62012, "latitude": 39.07267, "longitude": -90.254596, "city": "Brighton", "state": "IL", "county": "Jersey", "Abandon": 0.0, "In Progress": 0.0, "In Use": 1.0}, {"zip_code": 62016, "latitude": 39.380638, "longitude": -90.399251, "city": "Carrollton", "state": "IL", "county": "Greene", "Abandon": 0.0, "In Progress": 1.0, "In Use": 3.0}, {"zip_code": 62017, "latitude": 39.070254, "longitude": -89.380042, "city": "Coffeen", "state": "IL", "county": "Montgomery", "Abandon": 0.0, "In Progress": 0.0, "In Use": 8.0}, {"zip_code": 62022, "latitude": 38.992751, "longitude": -90.316504, "city": "Dow", "state": "IL", "county": "Jersey", "Abandon": 0.0, "In Progress": 0.0, "In Use": 1.0}, {"zip_code": 62024, "latitude": 38.831578, "longitude": -89.99119, "city": "East Alton", "state": "IL", "county": "Madison", "Abandon": 0.0, "In Progress": 0.0, "In Use": 6.0}, {"zip_code": 62025, "latitude": 38.841819, "longitude": -89.877841, "city": "Edwardsville", "state": "IL", "county": "Madison", "Abandon": 0.0, "In Progress": 1.0, "In Use": 2.0}, {"zip_code": 62026, "latitude": 38.733748, "longitude": -89.94305, "city": "Edwardsville", "state": "IL", "county": "Madison", "Abandon": 0.0, "In Progress": 1.0, "In Use": 42.0}, {"zip_code": 62035, "latitude": 38.884108, "longitude": -90.110532, "city": "Godfrey", "state": "IL", "county": "Madison", "Abandon": 0.0, "In Progress": 2.0, "In Use": 0.0}, {"zip_code": 62037, "latitude": 38.98414, "longitude": -90.43136, "city": "Grafton", "state": "IL", "county": "Jersey", "Abandon": 17.0, "In Progress": 1.0, "In Use": 217.0}, {"zip_code": 62040, "latitude": 38.802398, "longitude": -90.1289, "city": "Granite City", "state": "IL", "county": "Madison", "Abandon": 0.0, "In Progress": 0.0, "In Use": 19.0}, {"zip_code": 62046, "latitude": 38.880823, "longitude": -89.860115, "city": "Hamel", "state": "IL", "county": "Madison", "Abandon": 0.0, "In Progress": 0.0, "In Use": 23.0}, {"zip_code": 62047, "latitude": 39.149443, "longitude": -90.622789, "city": "Hardin", "state": "IL", "county": "Calhoun", "Abandon": 0.0, "In Progress": 0.0, "In Use": 1.0}, {"zip_code": 62048, "latitude": 38.827848, "longitude": -90.092606, "city": "Hartford", "state": "IL", "county": "Madison", "Abandon": 0.0, "In Progress": 0.0, "In Use": 9.0}, {"zip_code": 62049, "latitude": 39.139201, "longitude": -89.471754, "city": "Hillsboro", "state": "IL", "county": "Montgomery", "Abandon": 0.0, "In Progress": 0.0, "In Use": 50.0}, {"zip_code": 62052, "latitude": 39.101894, "longitude": -90.304917, "city": "Jerseyville", "state": "IL", "county": "Jersey", "Abandon": 0.0, "In Progress": 0.0, "In Use": 6.0}, {"zip_code": 62053, "latitude": 39.311587, "longitude": -90.636915, "city": "Kampsville", "state": "IL", "county": "Calhoun", "Abandon": 0.0, "In Progress": 1.0, "In Use": 2.0}, {"zip_code": 62056, "latitude": 39.169422, "longitude": -89.552405, "city": "Litchfield", "state": "IL", "county": "Montgomery", "Abandon": 0.0, "In Progress": 3.0, "In Use": 14.0}, {"zip_code": 62060, "latitude": 38.683349, "longitude": -90.149108, "city": "Madison", "state": "IL", "county": "Madison", "Abandon": 0.0, "In Progress": 0.0, "In Use": 1.0}, {"zip_code": 62062, "latitude": 38.713829, "longitude": -89.965751, "city": "Maryville", "state": "IL", "county": "Madison", "Abandon": 0.0, "In Progress": 1.0, "In Use": 0.0}, {"zip_code": 62080, "latitude": 39.144177, "longitude": -89.110549, "city": "Ramsey", "state": "IL", "county": "Fayette", "Abandon": 0.0, "In Progress": 0.0, "In Use": 8.0}, {"zip_code": 62082, "latitude": 39.483354, "longitude": -90.373258, "city": "Roodhouse", "state": "IL", "county": "Greene", "Abandon": 0.0, "In Progress": 0.0, "In Use": 4.0}, {"zip_code": 62090, "latitude": 38.67025, "longitude": -90.168859, "city": "Venice", "state": "IL", "county": "Madison", "Abandon": 0.0, "In Progress": 0.0, "In Use": 1.0}, {"zip_code": 62201, "latitude": 38.612317, "longitude": -90.115857, "city": "East Saint Louis", "state": "IL", "county": "Saint Clair", "Abandon": 0.0, "In Progress": 1.0, "In Use": 24.0}, {"zip_code": 62202, "latitude": 38.6163, "longitude": -90.159059, "city": "East Saint Louis", "state": "IL", "county": "Saint Clair", "Abandon": 10.0, "In Progress": 0.0, "In Use": 12.0}, {"zip_code": 62203, "latitude": 38.595757, "longitude": -90.077007, "city": "East Saint Louis", "state": "IL", "county": "Saint Clair", "Abandon": 0.0, "In Progress": 0.0, "In Use": 20.0}, {"zip_code": 62205, "latitude": 38.6123, "longitude": -90.124308, "city": "East Saint Louis", "state": "IL", "county": "Saint Clair", "Abandon": 0.0, "In Progress": 0.0, "In Use": 32.0}, {"zip_code": 62206, "latitude": 38.551401, "longitude": -90.15441, "city": "East Saint Louis", "state": "IL", "county": "Saint Clair", "Abandon": 0.0, "In Progress": 0.0, "In Use": 6.0}, {"zip_code": 62208, "latitude": 38.59666, "longitude": -90.006304, "city": "Fairview Heights", "state": "IL", "county": "Saint Clair", "Abandon": 0.0, "In Progress": 1.0, "In Use": 3.0}, {"zip_code": 62217, "latitude": 38.155348, "longitude": -89.752849, "city": "Baldwin", "state": "IL", "county": "Randolph", "Abandon": 0.0, "In Progress": 0.0, "In Use": 33.0}, {"zip_code": 62220, "latitude": 38.46435, "longitude": -89.973877, "city": "Belleville", "state": "IL", "county": "Saint Clair", "Abandon": 0.0, "In Progress": 0.0, "In Use": 4.0}, {"zip_code": 62221, "latitude": 38.523569, "longitude": -89.911601, "city": "Belleville", "state": "IL", "county": "Saint Clair", "Abandon": 0.0, "In Progress": 0.0, "In Use": 15.0}, {"zip_code": 62226, "latitude": 38.509999, "longitude": -89.998685, "city": "Belleville", "state": "IL", "county": "Saint Clair", "Abandon": 0.0, "In Progress": 1.0, "In Use": 0.0}, {"zip_code": 62231, "latitude": 38.620776, "longitude": -89.402155, "city": "Carlyle", "state": "IL", "county": "Clinton", "Abandon": 0.0, "In Progress": 0.0, "In Use": 79.0}, {"zip_code": 62233, "latitude": 38.048847, "longitude": -89.815308, "city": "Chester", "state": "IL", "county": "Randolph", "Abandon": 0.0, "In Progress": 0.0, "In Use": 76.0}, {"zip_code": 62234, "latitude": 38.733747, "longitude": -89.908644, "city": "Collinsville", "state": "IL", "county": "Madison", "Abandon": 0.0, "In Progress": 0.0, "In Use": 14.0}, {"zip_code": 62236, "latitude": 38.409442, "longitude": -90.16382, "city": "Columbia", "state": "IL", "county": "Monroe", "Abandon": 0.0, "In Progress": 0.0, "In Use": 6.0}, {"zip_code": 62241, "latitude": 38.041586, "longitude": -89.893045, "city": "Ellis Grove", "state": "IL", "county": "Randolph", "Abandon": 0.0, "In Progress": 0.0, "In Use": 30.0}, {"zip_code": 62244, "latitude": 38.187143, "longitude": -90.194704, "city": "Fults", "state": "IL", "county": "Monroe", "Abandon": 0.0, "In Progress": 0.0, "In Use": 2.0}, {"zip_code": 62246, "latitude": 38.884421, "longitude": -89.423032, "city": "Greenville", "state": "IL", "county": "Bond", "Abandon": 0.0, "In Progress": 0.0, "In Use": 4.0}, {"zip_code": 62249, "latitude": 38.758429, "longitude": -89.741694, "city": "Highland", "state": "IL", "county": "Madison", "Abandon": 0.0, "In Progress": 0.0, "In Use": 6.0}, {"zip_code": 62254, "latitude": 38.605448, "longitude": -89.82823, "city": "Lebanon", "state": "IL", "county": "Saint Clair", "Abandon": 0.0, "In Progress": 0.0, "In Use": 2.0}, {"zip_code": 62258, "latitude": 38.421239, "longitude": -89.769993, "city": "Mascoutah", "state": "IL", "county": "Saint Clair", "Abandon": 0.0, "In Progress": 0.0, "In Use": 2.0}, {"zip_code": 62259, "latitude": 38.013132, "longitude": -89.899569, "city": "Menard", "state": "IL", "county": "Randolph", "Abandon": 3.0, "In Progress": 0.0, "In Use": 123.0}, {"zip_code": 62260, "latitude": 38.471651, "longitude": -90.092336, "city": "Millstadt", "state": "IL", "county": "Saint Clair", "Abandon": 0.0, "In Progress": 0.0, "In Use": 123.0}, {"zip_code": 62263, "latitude": 38.331439, "longitude": -89.3674, "city": "Nashville", "state": "IL", "county": "Washington", "Abandon": 0.0, "In Progress": 0.0, "In Use": 41.0}, {"zip_code": 62269, "latitude": 38.571835, "longitude": -89.89568, "city": "O Fallon", "state": "IL", "county": "Saint Clair", "Abandon": 0.0, "In Progress": 0.0, "In Use": 3.0}, {"zip_code": 62273, "latitude": 38.884459, "longitude": -89.444898, "city": "Pierron", "state": "IL", "county": "Bond", "Abandon": 0.0, "In Progress": 1.0, "In Use": 0.0}, {"zip_code": 62274, "latitude": 38.083297, "longitude": -89.386589, "city": "Pinckneyville", "state": "IL", "county": "Perry", "Abandon": 0.0, "In Progress": 0.0, "In Use": 50.0}, {"zip_code": 62278, "latitude": 38.119605, "longitude": -89.818578, "city": "Red Bud", "state": "IL", "county": "Randolph", "Abandon": 0.0, "In Progress": 0.0, "In Use": 5.0}, {"zip_code": 62280, "latitude": 37.861143, "longitude": -89.698387, "city": "Rockwood", "state": "IL", "county": "Randolph", "Abandon": 0.0, "In Progress": 0.0, "In Use": 1.0}, {"zip_code": 62286, "latitude": 38.108083, "longitude": -89.726486, "city": "Sparta", "state": "IL", "county": "Randolph", "Abandon": 0.0, "In Progress": 8.0, "In Use": 38.0}, {"zip_code": 62288, "latitude": 38.004698, "longitude": -89.676103, "city": "Steeleville", "state": "IL", "county": "Randolph", "Abandon": 0.0, "In Progress": 0.0, "In Use": 5.0}, {"zip_code": 62294, "latitude": 38.721612, "longitude": -89.895817, "city": "Troy", "state": "IL", "county": "Madison", "Abandon": 0.0, "In Progress": 0.0, "In Use": 5.0}, {"zip_code": 62301, "latitude": 39.952413, "longitude": -91.200676, "city": "Quincy", "state": "IL", "county": "Adams", "Abandon": 2.0, "In Progress": 1.0, "In Use": 60.0}, {"zip_code": 62305, "latitude": 39.96008, "longitude": -91.302633, "city": "Quincy", "state": "IL", "county": "Adams", "Abandon": 0.0, "In Progress": 0.0, "In Use": 2.0}, {"zip_code": 62311, "latitude": 40.330707, "longitude": -91.045874, "city": "Augusta", "state": "IL", "county": "Hancock", "Abandon": 0.0, "In Progress": 0.0, "In Use": 13.0}, {"zip_code": 62321, "latitude": 40.432148, "longitude": -91.135365, "city": "Carthage", "state": "IL", "county": "Hancock", "Abandon": 0.0, "In Progress": 0.0, "In Use": 6.0}, {"zip_code": 62324, "latitude": 39.982894, "longitude": -90.949268, "city": "Clayton", "state": "IL", "county": "Adams", "Abandon": 0.0, "In Progress": 0.0, "In Use": 13.0}, {"zip_code": 62326, "latitude": 40.400892, "longitude": -90.734536, "city": "Colchester", "state": "IL", "county": "Mcdonough", "Abandon": 7.0, "In Progress": 0.0, "In Use": 34.0}, {"zip_code": 62340, "latitude": 39.741573, "longitude": -90.749386, "city": "Griggsville", "state": "IL", "county": "Pike", "Abandon": 0.0, "In Progress": 0.0, "In Use": 2.0}, {"zip_code": 62347, "latitude": 39.887579, "longitude": -91.106747, "city": "Liberty", "state": "IL", "county": "Adams", "Abandon": 0.0, "In Progress": 0.0, "In Use": 1.0}, {"zip_code": 62353, "latitude": 39.978147, "longitude": -90.756924, "city": "Mount Sterling", "state": "IL", "county": "Brown", "Abandon": 0.0, "In Progress": 0.0, "In Use": 29.0}, {"zip_code": 62354, "latitude": 40.432598, "longitude": -91.208266, "city": "Nauvoo", "state": "IL", "county": "Hancock", "Abandon": 0.0, "In Progress": 3.0, "In Use": 22.0}, {"zip_code": 62363, "latitude": 39.615433, "longitude": -90.798482, "city": "Pittsfield", "state": "IL", "county": "Pike", "Abandon": 0.0, "In Progress": 0.0, "In Use": 13.0}, {"zip_code": 62401, "latitude": 39.116649, "longitude": -88.545705, "city": "Effingham", "state": "IL", "county": "Effingham", "Abandon": 0.0, "In Progress": 0.0, "In Use": 34.0}, {"zip_code": 62418, "latitude": 38.994303, "longitude": -88.955042, "city": "Brownstown", "state": "IL", "county": "Fayette", "Abandon": 0.0, "In Progress": 0.0, "In Use": 1.0}, {"zip_code": 62425, "latitude": 38.819798, "longitude": -88.090524, "city": "Dundas", "state": "IL", "county": "Richland", "Abandon": 0.0, "In Progress": 0.0, "In Use": 1.0}, {"zip_code": 62428, "latitude": 39.274017, "longitude": -88.124598, "city": "Greenup", "state": "IL", "county": "Cumberland", "Abandon": 0.0, "In Progress": 0.0, "In Use": 6.0}, {"zip_code": 62433, "latitude": 39.085312, "longitude": -87.707636, "city": "Hutsonville", "state": "IL", "county": "Crawford", "Abandon": 0.0, "In Progress": 0.0, "In Use": 10.0}, {"zip_code": 62439, "latitude": 38.685176, "longitude": -87.634235, "city": "Lawrenceville", "state": "IL", "county": "Lawrence", "Abandon": 0.0, "In Progress": 0.0, "In Use": 8.0}, {"zip_code": 62440, "latitude": 39.418401, "longitude": -88.270006, "city": "Lerna", "state": "IL", "county": "Coles", "Abandon": 0.0, "In Progress": 0.0, "In Use": 29.0}, {"zip_code": 62441, "latitude": 39.331139, "longitude": -87.747363, "city": "Marshall", "state": "IL", "county": "Clark", "Abandon": 0.0, "In Progress": 0.0, "In Use": 36.0}, {"zip_code": 62442, "latitude": 39.325782, "longitude": -87.850086, "city": "Martinsville", "state": "IL", "county": "Clark", "Abandon": 0.0, "In Progress": 0.0, "In Use": 1.0}, {"zip_code": 62448, "latitude": 38.980049, "longitude": -88.184675, "city": "Newton", "state": "IL", "county": "Jasper", "Abandon": 0.0, "In Progress": 1.0, "In Use": 59.0}, {"zip_code": 62450, "latitude": 38.709154, "longitude": -88.085204, "city": "Olney", "state": "IL", "county": "Richland", "Abandon": 0.0, "In Progress": 1.0, "In Use": 5.0}, {"zip_code": 62454, "latitude": 39.004559, "longitude": -87.751776, "city": "Robinson", "state": "IL", "county": "Crawford", "Abandon": 0.0, "In Progress": 1.0, "In Use": 32.0}, {"zip_code": 62465, "latitude": 39.349589, "longitude": -88.616381, "city": "Strasburg", "state": "IL", "county": "Shelby", "Abandon": 0.0, "In Progress": 0.0, "In Use": 12.0}, {"zip_code": 62466, "latitude": 38.717105, "longitude": -87.863812, "city": "Sumner", "state": "IL", "county": "Lawrence", "Abandon": 0.0, "In Progress": 1.0, "In Use": 50.0}, {"zip_code": 62471, "latitude": 38.982404, "longitude": -89.051628, "city": "Vandalia", "state": "IL", "county": "Fayette", "Abandon": 0.0, "In Progress": 0.0, "In Use": 130.0}, {"zip_code": 62479, "latitude": 39.028977, "longitude": -88.299931, "city": "Wheeler", "state": "IL", "county": "Jasper", "Abandon": 0.0, "In Progress": 0.0, "In Use": 1.0}, {"zip_code": 62501, "latitude": 39.965322, "longitude": -88.848695, "city": "Argenta", "state": "IL", "county": "Macon", "Abandon": 0.0, "In Progress": 0.0, "In Use": 4.0}, {"zip_code": 62521, "latitude": 39.839477, "longitude": -88.946486, "city": "Decatur", "state": "IL", "county": "Macon", "Abandon": 0.0, "In Progress": 0.0, "In Use": 6.0}, {"zip_code": 62526, "latitude": 39.858284, "longitude": -88.938244, "city": "Decatur", "state": "IL", "county": "Macon", "Abandon": 0.0, "In Progress": 2.0, "In Use": 29.0}, {"zip_code": 62530, "latitude": 39.569165, "longitude": -89.662571, "city": "Divernon", "state": "IL", "county": "Sangamon", "Abandon": 0.0, "In Progress": 0.0, "In Use": 1.0}, {"zip_code": 62534, "latitude": 39.519283, "longitude": -88.746756, "city": "Findlay", "state": "IL", "county": "Shelby", "Abandon": 0.0, "In Progress": 0.0, "In Use": 50.0}, {"zip_code": 62548, "latitude": 39.989734, "longitude": -89.294027, "city": "Mount Pulaski", "state": "IL", "county": "Logan", "Abandon": 0.0, "In Progress": 0.0, "In Use": 1.0}, {"zip_code": 62549, "latitude": 39.825599, "longitude": -88.907654, "city": "Mt Zion", "state": "IL", "county": "Macon", "Abandon": 0.0, "In Progress": 0.0, "In Use": 11.0}, {"zip_code": 62558, "latitude": 39.60855, "longitude": -89.567791, "city": "Pawnee", "state": "IL", "county": "Sangamon", "Abandon": 0.0, "In Progress": 0.0, "In Use": 19.0}, {"zip_code": 62563, "latitude": 39.718237, "longitude": -89.564891, "city": "Rochester", "state": "IL", "county": "Sangamon", "Abandon": 8.0, "In Progress": 2.0, "In Use": 39.0}, {"zip_code": 62565, "latitude": 39.458013, "longitude": -88.805788, "city": "Shelbyville", "state": "IL", "county": "Shelby", "Abandon": 0.0, "In Progress": 0.0, "In Use": 5.0}, {"zip_code": 62568, "latitude": 39.559092, "longitude": -89.34063, "city": "Taylorville", "state": "IL", "county": "Christian", "Abandon": 0.0, "In Progress": 0.0, "In Use": 31.0}, {"zip_code": 62612, "latitude": 39.938647, "longitude": -90.079241, "city": "Ashland", "state": "IL", "county": "Cass", "Abandon": 0.0, "In Progress": 0.0, "In Use": 1.0}, {"zip_code": 62618, "latitude": 39.962623, "longitude": -90.265277, "city": "Beardstown", "state": "IL", "county": "Cass", "Abandon": 0.0, "In Progress": 0.0, "In Use": 2.0}, {"zip_code": 62626, "latitude": 39.288546, "longitude": -89.866054, "city": "Carlinville", "state": "IL", "county": "Macoupin", "Abandon": 0.0, "In Progress": 0.0, "In Use": 4.0}, {"zip_code": 62627, "latitude": 40.037402, "longitude": -90.116282, "city": "Chandlerville", "state": "IL", "county": "Cass", "Abandon": 1.0, "In Progress": 0.0, "In Use": 95.0}, {"zip_code": 62644, "latitude": 40.308441, "longitude": -89.938334, "city": "Havana", "state": "IL", "county": "Mason", "Abandon": 0.0, "In Progress": 1.0, "In Use": 14.0}, {"zip_code": 62650, "latitude": 39.737044, "longitude": -90.301388, "city": "Jacksonville", "state": "IL", "county": "Morgan", "Abandon": 3.0, "In Progress": 1.0, "In Use": 84.0}, {"zip_code": 62656, "latitude": 40.162779, "longitude": -89.398361, "city": "Lincoln", "state": "IL", "county": "Logan", "Abandon": 23.0, "In Progress": 0.0, "In Use": 103.0}, {"zip_code": 62664, "latitude": 40.226923, "longitude": -89.731758, "city": "Mason City", "state": "IL", "county": "Mason", "Abandon": 0.0, "In Progress": 0.0, "In Use": 3.0}, {"zip_code": 62675, "latitude": 39.972828, "longitude": -89.807192, "city": "Petersburg", "state": "IL", "county": "Menard", "Abandon": 2.0, "In Progress": 0.0, "In Use": 86.0}, {"zip_code": 62681, "latitude": 40.113259, "longitude": -90.543205, "city": "Rushville", "state": "IL", "county": "Schuyler", "Abandon": 0.0, "In Progress": 1.0, "In Use": 13.0}, {"zip_code": 62684, "latitude": 39.912115, "longitude": -89.587697, "city": "Sherman", "state": "IL", "county": "Sangamon", "Abandon": 0.0, "In Progress": 0.0, "In Use": 5.0}, {"zip_code": 62685, "latitude": 39.195161, "longitude": -89.960661, "city": "Shipman", "state": "IL", "county": "Macoupin", "Abandon": 0.0, "In Progress": 0.0, "In Use": 22.0}, {"zip_code": 62691, "latitude": 39.958003, "longitude": -90.176415, "city": "Virginia", "state": "IL", "county": "Cass", "Abandon": 0.0, "In Progress": 1.0, "In Use": 4.0}, {"zip_code": 62694, "latitude": 39.62663, "longitude": -90.466389, "city": "Winchester", "state": "IL", "county": "Scott", "Abandon": 1.0, "In Progress": 0.0, "In Use": 4.0}, {"zip_code": 62701, "latitude": 39.820839, "longitude": -89.598978, "city": "Springfield", "state": "IL", "county": "Sangamon", "Abandon": 0.0, "In Progress": 0.0, "In Use": 13.0}, {"zip_code": 62702, "latitude": 39.831699, "longitude": -89.646507, "city": "Springfield", "state": "IL", "county": "Sangamon", "Abandon": 1.0, "In Progress": 1.0, "In Use": 262.0}, {"zip_code": 62703, "latitude": 39.762206, "longitude": -89.627547, "city": "Springfield", "state": "IL", "county": "Sangamon", "Abandon": 0.0, "In Progress": 2.0, "In Use": 82.0}, {"zip_code": 62704, "latitude": 39.772463, "longitude": -89.688924, "city": "Springfield", "state": "IL", "county": "Sangamon", "Abandon": 0.0, "In Progress": 0.0, "In Use": 29.0}, {"zip_code": 62706, "latitude": 39.79885, "longitude": -89.653399, "city": "Springfield", "state": "IL", "county": "Sangamon", "Abandon": 0.0, "In Progress": 0.0, "In Use": 13.0}, {"zip_code": 62707, "latitude": 39.785116, "longitude": -89.632205, "city": "Springfield", "state": "IL", "county": "Sangamon", "Abandon": 0.0, "In Progress": 1.0, "In Use": 10.0}, {"zip_code": 62794, "latitude": 39.749457, "longitude": -89.606017, "city": "Springfield", "state": "IL", "county": "Sangamon", "Abandon": 0.0, "In Progress": 0.0, "In Use": 3.0}, {"zip_code": 62801, "latitude": 38.63831, "longitude": -88.957758, "city": "Centralia", "state": "IL", "county": "Marion", "Abandon": 0.0, "In Progress": 0.0, "In Use": 67.0}, {"zip_code": 62808, "latitude": 38.290049, "longitude": -89.232163, "city": "Ashley", "state": "IL", "county": "Washington", "Abandon": 0.0, "In Progress": 0.0, "In Use": 1.0}, {"zip_code": 62812, "latitude": 37.994423, "longitude": -88.907464, "city": "Benton", "state": "IL", "county": "Franklin", "Abandon": 0.0, "In Progress": 0.0, "In Use": 44.0}, {"zip_code": 62816, "latitude": 38.20359, "longitude": -88.936697, "city": "Bonnie", "state": "IL", "county": "Jefferson", "Abandon": 0.0, "In Progress": 0.0, "In Use": 4.0}, {"zip_code": 62821, "latitude": 38.089387, "longitude": -88.175742, "city": "Carmi", "state": "IL", "county": "White", "Abandon": 0.0, "In Progress": 0.0, "In Use": 6.0}, {"zip_code": 62832, "latitude": 38.044645, "longitude": -89.253006, "city": "Du Quoin", "state": "IL", "county": "Perry", "Abandon": 0.0, "In Progress": 0.0, "In Use": 75.0}, {"zip_code": 62835, "latitude": 38.100523, "longitude": -88.29927, "city": "Enfield", "state": "IL", "county": "White", "Abandon": 0.0, "In Progress": 1.0, "In Use": 4.0}, {"zip_code": 62837, "latitude": 38.389091, "longitude": -88.367146, "city": "Fairfield", "state": "IL", "county": "Wayne", "Abandon": 0.0, "In Progress": 0.0, "In Use": 6.0}, {"zip_code": 62839, "latitude": 38.710797, "longitude": -88.493686, "city": "Flora", "state": "IL", "county": "Clay", "Abandon": 0.0, "In Progress": 1.0, "In Use": 4.0}, {"zip_code": 62844, "latitude": 38.147618, "longitude": -88.122963, "city": "Grayville", "state": "IL", "county": "White", "Abandon": 0.0, "In Progress": 0.0, "In Use": 1.0}, {"zip_code": 62846, "latitude": 38.155485, "longitude": -88.819501, "city": "Ina", "state": "IL", "county": "Jefferson", "Abandon": 0.0, "In Progress": 0.0, "In Use": 24.0}, {"zip_code": 62849, "latitude": 38.595441, "longitude": -88.809517, "city": "Iuka", "state": "IL", "county": "Marion", "Abandon": 0.0, "In Progress": 0.0, "In Use": 1.0}, {"zip_code": 62850, "latitude": 38.519401, "longitude": -88.536564, "city": "Johnsonville", "state": "IL", "county": "Wayne", "Abandon": 0.0, "In Progress": 0.0, "In Use": 15.0}, {"zip_code": 62854, "latitude": 38.657892, "longitude": -88.91335, "city": "Kinmundy", "state": "IL", "county": "Marion", "Abandon": 0.0, "In Progress": 1.0, "In Use": 25.0}, {"zip_code": 62859, "latitude": 38.08963, "longitude": -88.53653, "city": "Mc Leansboro", "state": "IL", "county": "Hamilton", "Abandon": 0.0, "In Progress": 0.0, "In Use": 37.0}, {"zip_code": 62863, "latitude": 38.441814, "longitude": -87.828423, "city": "Mount Carmel", "state": "IL", "county": "Wabash", "Abandon": 0.0, "In Progress": 0.0, "In Use": 7.0}, {"zip_code": 62864, "latitude": 38.293269, "longitude": -88.892273, "city": "Mount Vernon", "state": "IL", "county": "Jefferson", "Abandon": 0.0, "In Progress": 2.0, "In Use": 24.0}, {"zip_code": 62881, "latitude": 38.643793, "longitude": -88.974839, "city": "Salem", "state": "IL", "county": "Marion", "Abandon": 0.0, "In Progress": 1.0, "In Use": 6.0}, {"zip_code": 62882, "latitude": 38.597, "longitude": -88.968203, "city": "Sandoval", "state": "IL", "county": "Marion", "Abandon": 0.0, "In Progress": 0.0, "In Use": 1.0}, {"zip_code": 62888, "latitude": 38.133323, "longitude": -89.217309, "city": "Tamaroa", "state": "IL", "county": "Perry", "Abandon": 0.0, "In Progress": 0.0, "In Use": 1.0}, {"zip_code": 62896, "latitude": 37.976856, "longitude": -88.910164, "city": "West Frankfort", "state": "IL", "county": "Franklin", "Abandon": 0.0, "In Progress": 0.0, "In Use": 1.0}, {"zip_code": 62897, "latitude": 38.087223, "longitude": -88.901443, "city": "Whittington", "state": "IL", "county": "Franklin", "Abandon": 0.0, "In Progress": 1.0, "In Use": 80.0}, {"zip_code": 62901, "latitude": 37.77452, "longitude": -89.387286, "city": "Carbondale", "state": "IL", "county": "Jackson", "Abandon": 11.0, "In Progress": 5.0, "In Use": 243.0}, {"zip_code": 62906, "latitude": 37.474268, "longitude": -89.163042, "city": "Anna", "state": "IL", "county": "Union", "Abandon": 1.0, "In Progress": 0.0, "In Use": 57.0}, {"zip_code": 62908, "latitude": 37.335571, "longitude": -88.909205, "city": "Belknap", "state": "IL", "county": "Johnson", "Abandon": 0.0, "In Progress": 0.0, "In Use": 17.0}, {"zip_code": 62910, "latitude": 37.212897, "longitude": -88.605104, "city": "Brookport", "state": "IL", "county": "Massac", "Abandon": 0.0, "In Progress": 0.0, "In Use": 6.0}, {"zip_code": 62914, "latitude": 37.028797, "longitude": -89.192754, "city": "Cairo", "state": "IL", "county": "Alexander", "Abandon": 1.0, "In Progress": 0.0, "In Use": 9.0}, {"zip_code": 62917, "latitude": 37.680285, "longitude": -88.619902, "city": "Carrier Mills", "state": "IL", "county": "Saline", "Abandon": 6.0, "In Progress": 0.0, "In Use": 1.0}, {"zip_code": 62919, "latitude": 37.500757, "longitude": -88.238292, "city": "Cave In Rock", "state": "IL", "county": "Hardin", "Abandon": 0.0, "In Progress": 0.0, "In Use": 24.0}, {"zip_code": 62923, "latitude": 37.365007, "longitude": -88.974743, "city": "Cypress", "state": "IL", "county": "Johnson", "Abandon": 0.0, "In Progress": 0.0, "In Use": 1.0}, {"zip_code": 62926, "latitude": 37.42204, "longitude": -89.225572, "city": "Dongola", "state": "IL", "county": "Union", "Abandon": 0.0, "In Progress": 0.0, "In Use": 4.0}, {"zip_code": 62931, "latitude": 37.500757, "longitude": -88.238292, "city": "Elizabethtown", "state": "IL", "county": "Hardin", "Abandon": 0.0, "In Progress": 0.0, "In Use": 10.0}, {"zip_code": 62934, "latitude": 37.706289, "longitude": -88.330839, "city": "Equality", "state": "IL", "county": "Gallatin", "Abandon": 0.0, "In Progress": 0.0, "In Use": 26.0}, {"zip_code": 62938, "latitude": 37.360193, "longitude": -88.488571, "city": "Golconda", "state": "IL", "county": "Pope", "Abandon": 0.0, "In Progress": 0.0, "In Use": 44.0}, {"zip_code": 62939, "latitude": 37.534099, "longitude": -88.971292, "city": "Goreville", "state": "IL", "county": "Johnson", "Abandon": 0.0, "In Progress": 0.0, "In Use": 36.0}, {"zip_code": 62940, "latitude": 37.736732, "longitude": -89.469534, "city": "Gorham", "state": "IL", "county": "Jackson", "Abandon": 0.0, "In Progress": 0.0, "In Use": 4.0}, {"zip_code": 62943, "latitude": 37.379384, "longitude": -88.758329, "city": "Grantsburg", "state": "IL", "county": "Johnson", "Abandon": 0.0, "In Progress": 0.0, "In Use": 12.0}, {"zip_code": 62946, "latitude": 37.720129, "longitude": -88.536736, "city": "Harrisburg", "state": "IL", "county": "Saline", "Abandon": 0.0, "In Progress": 0.0, "In Use": 24.0}, {"zip_code": 62952, "latitude": 37.422793, "longitude": -89.266574, "city": "Jonesboro", "state": "IL", "county": "Union", "Abandon": 0.0, "In Progress": 0.0, "In Use": 47.0}, {"zip_code": 62954, "latitude": 37.695153, "longitude": -88.260046, "city": "Junction", "state": "IL", "county": "Gallatin", "Abandon": 0.0, "In Progress": 0.0, "In Use": 5.0}, {"zip_code": 62958, "latitude": 37.687072, "longitude": -89.250933, "city": "Makanda", "state": "IL", "county": "Jackson", "Abandon": 29.0, "In Progress": 0.0, "In Use": 170.0}, {"zip_code": 62959, "latitude": 37.729571, "longitude": -88.912852, "city": "Marion", "state": "IL", "county": "Williamson", "Abandon": 0.0, "In Progress": 3.0, "In Use": 12.0}, {"zip_code": 62960, "latitude": 37.228995, "longitude": -88.714524, "city": "Metropolis", "state": "IL", "county": "Massac", "Abandon": 0.0, "In Progress": 0.0, "In Use": 28.0}, {"zip_code": 62962, "latitude": 37.152775, "longitude": -89.325581, "city": "Miller City", "state": "IL", "county": "Alexander", "Abandon": 0.0, "In Progress": 0.0, "In Use": 13.0}, {"zip_code": 62966, "latitude": 37.782223, "longitude": -89.396839, "city": "Murphysboro", "state": "IL", "county": "Jackson", "Abandon": 0.0, "In Progress": 0.0, "In Use": 22.0}, {"zip_code": 62984, "latitude": 37.710189, "longitude": -88.183169, "city": "Shawneetown", "state": "IL", "county": "Gallatin", "Abandon": 2.0, "In Progress": 0.0, "In Use": 8.0}, {"zip_code": 62988, "latitude": 37.239072, "longitude": -89.269752, "city": "Tamms", "state": "IL", "county": "Alexander", "Abandon": 0.0, "In Progress": 0.0, "In Use": 23.0}, {"zip_code": 62992, "latitude": 37.28344, "longitude": -89.13646, "city": "Ullin", "state": "IL", "county": "Pulaski", "Abandon": 0.0, "In Progress": 0.0, "In Use": 2.0}, {"zip_code": 62995, "latitude": 37.42417, "longitude": -88.898049, "city": "Vienna", "state": "IL", "county": "Johnson", "Abandon": 1.0, "In Progress": 0.0, "In Use": 91.0}, {"zip_code": 62999, "latitude": 37.899054, "longitude": -89.052317, "city": "Zeigler", "state": "IL", "county": "Franklin", "Abandon": 0.0, "In Progress": 0.0, "In Use": 3.0}]}}